{"type":"FeatureCollection","features":[{"type":"Feature","properties":{"label":"Oxford Market"},"geometry":{"coordinates":[-0.1396164936701041,51.51635195172943],"type":"Point"},"id":0},{"type":"Feature","properties":{"label":"Castle Street"},"geometry":{"coordinates":[-0.13777539973020225,51.5166392510809],"type":"Point"},"id":1},{"type":"Feature","properties":{"label":"Berners Street"},"geometry":{"coordinates":[-0.1359032993358369,51.516083294825535],"type":"Point"}},{"type":"Feature","properties":{"label":"Newman Street"},"geometry":{"coordinates":[-0.13472233461317273,51.51627708914759],"type":"Point"},"id":3},{"type":"Feature","properties":{"label":"Marlborough Mews"},"geometry":{"coordinates":[-0.1396139597638637,51.51489530027888],"type":"Point"}},{"type":"Feature","properties":{"label":"Little Marlborough Street"},"geometry":{"coordinates":[-0.1395141180414896,51.5138516495783],"type":"Point"}},{"type":"Feature","properties":{"label":"Warwick Street"},"geometry":{"coordinates":[-0.13817542110604109,51.51127402639611],"type":"Point"}},{"type":"Feature","properties":{"label":"Bridle Street"},"geometry":{"coordinates":[-0.13591277942205693,51.5115026267095],"type":"Point"}},{"type":"Feature","properties":{"label":"Tichborne Street"},"geometry":{"coordinates":[-0.13400603498746477,51.51005846199669],"type":"Point"}},{"type":"Feature","properties":{"label":"Upper Rupert Street"},"geometry":{"coordinates":[-0.133589697091395,51.51209734749321],"type":"Point"}},{"type":"Feature","properties":{"label":"Broad Street"},"geometry":{"coordinates":[-0.13661065274243356,51.513329329331015],"type":"Point"}},{"type":"Feature","properties":{"label":"Vigo Street"},"geometry":{"coordinates":[-0.13953271101112819,51.51015219216663],"type":"Point"}},{"type":"Feature","properties":{"label":"King Street"},"geometry":{"coordinates":[-0.13164005432031445,51.51231915842965],"type":"Point"}}]}